[{"name": "Mary Reed Building", "contact": {}, "location": {"address": "E Warren Ave", "crossStreet": "university blvd", "lat": 39.676346574600274, "lng": -104.96136497159912, "distance": 54, "postalCode": "80208", "cc": "US", "city": "Denver", "state": "CO", "country": "United States", "formattedAddress": ["E Warren Ave (university blvd)", "Denver, CO 80208"]}, "categories": [{"name": "College Administrative Building", "pluralName": "College Administrative Buildings", "shortName": "Administrative Building", "primary": true}], "stats": {"tipCount": 4, "usersCount": 136, "checkinsCount": 697}, "specials": {"count": 0, "items": []}, "venueChains": []}, {"name": "DU Events And Media Support", "contact": {}, "location": {"address": "2150 Iliff Ave", "lat": 39.67634963989258, "lng": -104.96221160888672, "distance": 40, "postalCode": "80210", "cc": "US", "city": "Denver", "state": "CO", "country": "United States", "formattedAddress": ["2150 Iliff Ave", "Denver, CO 80210"]}, "categories": [{"name": "College Library", "pluralName": "College Libraries", "shortName": "Library", "primary": true}], "stats": {"tipCount": 0, "usersCount": 2, "checkinsCount": 2}, "specials": {"count": 0, "items": []}, "venueChains": []}, {"name": "University of Denver", "contact": {"phone": "3038712600", "formattedPhone": "(303) 871-2600"}, "location": {"address": "2199 S University Blvd", "lat": 39.67862343662162, "lng": -104.96302275705565, "distance": 243, "postalCode": "80210", "cc": "US", "city": "Denver", "state": "CO", "country": "United States", "formattedAddress": ["2199 S University Blvd", "Denver, CO 80210"]}, "categories": [{"name": "University", "pluralName": "Universities", "shortName": "University", "primary": true}], "stats": {"tipCount": 27, "usersCount": 2603, "checkinsCount": 7982}, "specials": {"count": 0, "items": []}, "venuePage": {"id": "38620920"}, "venueChains": []}, {"name": "Evans Chapel", "contact": {}, "location": {"lat": 39.67663474411929, "lng": -104.9630363746371, "distance": 97, "postalCode": "80210", "cc": "US", "city": "Denver", "state": "CO", "country": "United States", "formattedAddress": ["Denver, CO 80210"]}, "categories": [{"name": "Spiritual Center", "pluralName": "Spiritual Centers", "shortName": "Spiritual", "primary": true}], "stats": {"tipCount": 1, "usersCount": 83, "checkinsCount": 143}, "specials": {"count": 0, "items": []}, "venueChains": []}, {"name": "Renaissance Room", "contact": {}, "location": {"lat": 39.676602, "lng": -104.961412, "distance": 41, "postalCode": "80210", "cc": "US", "city": "Denver", "state": "CO", "country": "United States", "formattedAddress": ["Denver, CO 80210"]}, "categories": [{"name": "College Classroom", "pluralName": "College Classrooms", "shortName": "Classroom", "primary": true}], "stats": {"tipCount": 0, "usersCount": 5, "checkinsCount": 11}, "specials": {"count": 0, "items": []}, "venueChains": []}, {"name": "Book Stack", "contact": {}, "location": {"address": "Mary Reed Hall", "lat": 39.67651905112272, "lng": -104.96141975824459, "distance": 42, "cc": "US", "city": "Denver", "state": "CO", "country": "United States", "formattedAddress": ["Mary Reed Hall", "Denver, CO"]}, "categories": [{"name": "Bookstore", "pluralName": "Bookstores", "shortName": "Bookstore", "primary": true}], "stats": {"tipCount": 0, "usersCount": 2, "checkinsCount": 5}, "allowMenuUrlEdit": true, "specials": {"count": 0, "items": []}, "venueChains": []}, {"name": "DU Humanities Garden", "contact": {}, "location": {"lat": 39.676467, "lng": -104.96243, "distance": 48, "cc": "US", "city": "Denver", "state": "CO", "country": "United States", "formattedAddress": ["Denver, CO"]}, "categories": [{"name": "College Quad", "pluralName": "College Quads", "shortName": "Quad", "primary": true}], "stats": {"tipCount": 0, "usersCount": 3, "checkinsCount": 3}, "specials": {"count": 0, "items": []}, "venueChains": []}, {"name": "Anderson Academic Commons", "contact": {"phone": "3038713707", "formattedPhone": "(303) 871-3707", "twitter": "ducommons"}, "location": {"address": "2150 E Evans Ave", "crossStreet": "University and Evans", "lat": 39.677963371177604, "lng": -104.96199422771822, "distance": 150, "postalCode": "80210", "cc": "US", "city": "Denver", "state": "CO", "country": "United States", "formattedAddress": ["2150 E Evans Ave (University and Evans)", "Denver, CO 80210"]}, "categories": [{"name": "College Library", "pluralName": "College Libraries", "shortName": "Library", "primary": true}], "stats": {"tipCount": 8, "usersCount": 323, "checkinsCount": 1949}, "url": "http://library.du.edu/site/", "specials": {"count": 0, "items": []}, "venuePage": {"id": "51776583"}, "storeId": "", "venueChains": []}, {"name": "Josef Korbel School of International Studies", "contact": {}, "location": {"lat": 39.67601643490228, "lng": -104.96213635390737, "distance": 69, "postalCode": "80210", "cc": "US", "city": "Denver", "state": "CO", "country": "United States", "formattedAddress": ["Denver, CO 80210"]}, "categories": [{"name": "College Academic Building", "pluralName": "College Academic Buildings", "shortName": "Academic Building", "primary": true}], "stats": {"tipCount": 2, "usersCount": 153, "checkinsCount": 1270}, "specials": {"count": 0, "items": []}, "venueChains": []}, {"name": "Anna and John J. Si\u00c3\u00a9 International Relations Complex", "contact": {}, "location": {"lat": 39.675782226980004, "lng": -104.96252074858623, "distance": 107, "cc": "US", "city": "Denver", "state": "CO", "country": "United States", "formattedAddress": ["Denver, CO"]}, "categories": [{"name": "College Academic Building", "pluralName": "College Academic Buildings", "shortName": "Academic Building", "primary": true}], "stats": {"tipCount": 0, "usersCount": 14, "checkinsCount": 48}, "specials": {"count": 0, "items": []}, "venueChains": []}, {"name": "Josef Korbel", "contact": {}, "location": {"lat": 39.67604103912901, "lng": -104.96249222542495, "distance": 81, "postalCode": "80210", "cc": "US", "city": "Denver", "state": "CO", "country": "United States", "formattedAddress": ["Denver, CO 80210"]}, "categories": [{"name": "University", "pluralName": "Universities", "shortName": "University", "primary": true}], "stats": {"tipCount": 3, "usersCount": 17, "checkinsCount": 123}, "specials": {"count": 0, "items": []}, "venueChains": []}, {"name": "Renaissance Room, Mary Reed Building", "contact": {}, "location": {"lat": 39.67697036798487, "lng": -104.96114593798704, "distance": 75, "cc": "US", "city": "Denver", "state": "CO", "country": "United States", "formattedAddress": ["Denver, CO"]}, "categories": [{"name": "College Library", "pluralName": "College Libraries", "shortName": "Library", "primary": true}], "stats": {"tipCount": 1, "usersCount": 6, "checkinsCount": 7}, "specials": {"count": 0, "items": []}, "venueChains": []}, {"name": "University Hall", "contact": {}, "location": {"address": "2199 S University Blvd", "lat": 39.67692637081072, "lng": -104.96062682169988, "distance": 114, "postalCode": "80210", "cc": "US", "city": "Denver", "state": "CO", "country": "United States", "formattedAddress": ["2199 S University Blvd", "Denver, CO 80210"]}, "categories": [{"name": "College Administrative Building", "pluralName": "College Administrative Buildings", "shortName": "Administrative Building", "primary": true}], "stats": {"tipCount": 0, "usersCount": 184, "checkinsCount": 619}, "specials": {"count": 0, "items": []}, "venueChains": []}, {"name": "Beans", "contact": {"phone": "3038714473", "formattedPhone": "(303) 871-4473"}, "location": {"address": "2030 E Evans Ave", "crossStreet": "DU Campus HRTM", "lat": 39.67720531846295, "lng": -104.96303676770555, "distance": 117, "postalCode": "80210", "cc": "US", "city": "Denver", "state": "CO", "country": "United States", "formattedAddress": ["2030 E Evans Ave (DU Campus HRTM)", "Denver, CO 80210"]}, "categories": [{"name": "Caf\u00c3\u00a9", "pluralName": "Caf\u00c3\u00a9s", "shortName": "Caf\u00c3\u00a9", "primary": true}], "stats": {"tipCount": 7, "usersCount": 109, "checkinsCount": 659}, "allowMenuUrlEdit": true, "specials": {"count": 0, "items": []}, "venueChains": []}, {"name": "Knoebel School of Hospitality Management", "contact": {}, "location": {"address": "Evans Ave", "lat": 39.67723630735968, "lng": -104.9631249893733, "distance": 125, "cc": "US", "city": "Denver", "state": "CO", "country": "United States", "formattedAddress": ["Evans Ave", "Denver, CO"]}, "categories": [{"name": "College Academic Building", "pluralName": "College Academic Buildings", "shortName": "Academic Building", "primary": true}], "stats": {"tipCount": 1, "usersCount": 182, "checkinsCount": 479}, "specials": {"count": 0, "items": []}, "venueChains": []}, {"name": "DU", "contact": {}, "location": {"lat": 39.67673261780825, "lng": -104.9634734250891, "distance": 135, "postalCode": "80210", "cc": "US", "city": "Denver", "state": "CO", "country": "United States", "formattedAddress": ["Denver, CO 80210"]}, "categories": [{"name": "University", "pluralName": "Universities", "shortName": "University", "primary": true}], "stats": {"tipCount": 0, "usersCount": 78, "checkinsCount": 154}, "specials": {"count": 0, "items": []}, "venueChains": []}, {"name": "Ben Cherrington Hall", "contact": {}, "location": {"address": "E Warren Ave", "lat": 39.6760448014352, "lng": -104.96208064734863, "distance": 65, "postalCode": "80210", "cc": "US", "city": "Denver", "state": "CO", "country": "United States", "formattedAddress": ["E Warren Ave", "Denver, CO 80210"]}, "categories": [{"name": "College Classroom", "pluralName": "College Classrooms", "shortName": "Classroom", "primary": true}], "stats": {"tipCount": 0, "usersCount": 54, "checkinsCount": 257}, "specials": {"count": 0, "items": []}, "venueChains": []}, {"name": "Sikh Temple, Denver CO", "contact": {}, "location": {"lat": 39.676569123196316, "lng": -104.96129425723514, "distance": 51, "postalCode": "80022", "cc": "US", "city": "Commerce City", "state": "CO", "country": "United States", "formattedAddress": ["Commerce City, CO 80022"]}, "categories": [{"name": "Temple", "pluralName": "Temples", "shortName": "Temple", "primary": true}], "stats": {"tipCount": 0, "usersCount": 3, "checkinsCount": 7}, "specials": {"count": 0, "items": []}, "venueChains": []}, {"name": "Daniels West Lawn", "contact": {}, "location": {"lat": 39.67756643384978, "lng": -104.960210388971, "distance": 178, "cc": "US", "city": "Denver", "state": "CO", "country": "United States", "formattedAddress": ["Denver, CO"]}, "categories": [{"name": "Field", "pluralName": "Fields", "shortName": "Field", "primary": true}], "stats": {"tipCount": 0, "usersCount": 21, "checkinsCount": 24}, "specials": {"count": 0, "items": []}, "venueChains": []}, {"name": "Latin America Center  (LAC)", "contact": {}, "location": {"lat": 39.675987, "lng": -104.962524, "distance": 88, "cc": "US", "city": "Denver", "state": "CO", "country": "United States", "formattedAddress": ["Denver, CO"]}, "categories": [{"name": "General College & University", "pluralName": "General Colleges & Universities", "shortName": "Education", "primary": true}], "stats": {"tipCount": 0, "usersCount": 1, "checkinsCount": 4}, "specials": {"count": 0, "items": []}, "venueChains": []}, {"name": "DU Bookstore", "contact": {}, "location": {"lat": 39.678095989127044, "lng": -104.96309578501216, "distance": 194, "postalCode": "80210", "cc": "US", "city": "Denver", "state": "CO", "country": "United States", "formattedAddress": ["Denver, CO 80210"]}, "categories": [{"name": "Bookstore", "pluralName": "Bookstores", "shortName": "Bookstore", "primary": true}], "stats": {"tipCount": 4, "usersCount": 259, "checkinsCount": 633}, "allowMenuUrlEdit": true, "specials": {"count": 0, "items": []}, "venueChains": []}, {"name": "Iliff School of Theology", "contact": {"phone": "8006783360", "formattedPhone": "(800) 678-3360"}, "location": {"address": "2201 S University Blvd", "crossStreet": "E Iliff Ave", "lat": 39.67557208091683, "lng": -104.96051843499504, "distance": 165, "postalCode": "80210", "cc": "US", "city": "Denver", "state": "CO", "country": "United States", "formattedAddress": ["2201 S University Blvd (E Iliff Ave)", "Denver, CO 80210"]}, "categories": [{"name": "College Academic Building", "pluralName": "College Academic Buildings", "shortName": "Academic Building", "primary": true}], "stats": {"tipCount": 1, "usersCount": 114, "checkinsCount": 932}, "url": "http://iliff.edu", "specials": {"count": 0, "items": []}, "venueChains": []}, {"name": "Fritz Knoebel Ballroom", "contact": {}, "location": {"lat": 39.67730550035552, "lng": -104.96289155014482, "distance": 114, "postalCode": "80013", "cc": "US", "city": "Aurora", "state": "CO", "country": "United States", "formattedAddress": ["Aurora, CO 80013"]}, "categories": [], "stats": {"tipCount": 0, "usersCount": 6, "checkinsCount": 6}, "specials": {"count": 0, "items": []}, "venueChains": []}, {"name": "harper humanities gardens", "contact": {}, "location": {"lat": 39.6767, "lng": -104.9624, "distance": 44, "cc": "US", "city": "Denver", "state": "CO", "country": "United States", "formattedAddress": ["Denver, CO"]}, "categories": [], "stats": {"tipCount": 0, "usersCount": 1, "checkinsCount": 1}, "specials": {"count": 0, "items": []}, "venueChains": []}, {"name": "Joy Burns Center", "contact": {}, "location": {"address": "2044 E Evans Ave", "lat": 39.6773582252042, "lng": -104.96316756794934, "distance": 136, "postalCode": "80210", "cc": "US", "city": "Denver", "state": "CO", "country": "United States", "formattedAddress": ["2044 E Evans Ave", "Denver, CO 80210"]}, "categories": [{"name": "College Academic Building", "pluralName": "College Academic Buildings", "shortName": "Academic Building", "primary": true}], "stats": {"tipCount": 0, "usersCount": 73, "checkinsCount": 197}, "specials": {"count": 0, "items": []}, "venueChains": []}, {"name": "Graduation Green", "contact": {}, "location": {"address": "2201 S University Blvd", "lat": 39.677284955978394, "lng": -104.96142089366913, "distance": 84, "postalCode": "80210", "cc": "US", "city": "Denver", "state": "CO", "country": "United States", "formattedAddress": ["2201 S University Blvd", "Denver, CO 80210"]}, "categories": [{"name": "College Quad", "pluralName": "College Quads", "shortName": "Quad", "primary": true}], "stats": {"tipCount": 0, "usersCount": 13, "checkinsCount": 14}, "specials": {"count": 0, "items": []}, "venueChains": []}, {"name": "H2 Parking Lot", "contact": {}, "location": {"lat": 39.675550683333334, "lng": -104.96231415, "distance": 123, "cc": "US", "state": "Colorado", "country": "United States", "formattedAddress": ["Colorado"]}, "categories": [{"name": "General College & University", "pluralName": "General Colleges & Universities", "shortName": "Education", "primary": true}], "stats": {"tipCount": 0, "usersCount": 2, "checkinsCount": 9}, "specials": {"count": 0, "items": []}, "venueChains": []}, {"name": "University", "contact": {}, "location": {"lat": 39.67827853742504, "lng": -104.96220128946982, "distance": 186, "cc": "US", "city": "Denver", "state": "CO", "country": "United States", "formattedAddress": ["Denver, CO"]}, "categories": [{"name": "Neighborhood", "pluralName": "Neighborhoods", "shortName": "Neighborhood", "primary": true}], "stats": {"tipCount": 0, "usersCount": 231, "checkinsCount": 905}, "specials": {"count": 0, "items": []}, "venueChains": []}, {"name": "Center on Rights Development (CORD)", "contact": {}, "location": {"lat": 39.67578780294536, "lng": -104.96313114545431, "distance": 140, "cc": "US", "city": "Denver", "state": "CO", "country": "United States", "formattedAddress": ["Denver, CO"]}, "categories": [{"name": "Non-Profit", "pluralName": "Non-Profits", "shortName": "Non-Profit", "primary": true}], "stats": {"tipCount": 0, "usersCount": 2, "checkinsCount": 32}, "specials": {"count": 0, "items": []}, "venueChains": []}, {"name": "Si\u00c3\u00a9 Ch\u00c3\u00a9ou- Kang Center", "contact": {}, "location": {"lat": 39.67564539414096, "lng": -104.96228685881356, "distance": 113, "cc": "US", "city": "Denver", "state": "CO", "country": "United States", "formattedAddress": ["Denver, CO"]}, "categories": [{"name": "College Science Building", "pluralName": "College Science Buildings", "shortName": "Science", "primary": true}], "stats": {"tipCount": 0, "usersCount": 2, "checkinsCount": 6}, "specials": {"count": 0, "items": []}, "venueChains": []}, {"name": "Tuscan Ballroom - DU School Of Hospitality", "contact": {}, "location": {"lat": 39.67721458508852, "lng": -104.9631710780407, "distance": 127, "postalCode": "80210", "cc": "US", "city": "Denver", "state": "CO", "country": "United States", "formattedAddress": ["Denver, CO 80210"]}, "categories": [{"name": "Event Space", "pluralName": "Event Spaces", "shortName": "Event Space", "primary": true}], "stats": {"tipCount": 0, "usersCount": 16, "checkinsCount": 20}, "specials": {"count": 0, "items": []}, "venueChains": []}, {"name": "Schlessman Hall", "contact": {}, "location": {"address": "2295 E Iliff Ave", "lat": 39.67529612646932, "lng": -104.96079519675621, "distance": 174, "postalCode": "80210", "cc": "US", "city": "Denver", "state": "CO", "country": "United States", "formattedAddress": ["2295 E Iliff Ave", "Denver, CO 80210"]}, "categories": [{"name": "Residential Building (Apartment / Condo)", "pluralName": "Residential Buildings (Apartments / Condos)", "shortName": "Residential", "primary": true}], "stats": {"tipCount": 0, "usersCount": 4, "checkinsCount": 110}, "specials": {"count": 0, "items": []}, "venueChains": []}, {"name": "Community Square At Daniels", "contact": {}, "location": {"address": "2101 S University Blvd #155", "lat": 39.677275381762904, "lng": -104.9597882528083, "distance": 194, "postalCode": "80210", "cc": "US", "city": "Denver", "state": "CO", "country": "United States", "formattedAddress": ["2101 S University Blvd #155", "Denver, CO 80210"]}, "categories": [{"name": "Caf\u00c3\u00a9", "pluralName": "Caf\u00c3\u00a9s", "shortName": "Caf\u00c3\u00a9", "primary": true}], "stats": {"tipCount": 0, "usersCount": 18, "checkinsCount": 251}, "allowMenuUrlEdit": true, "specials": {"count": 0, "items": []}, "venueChains": []}, {"name": "Faculty Reading Room Anderson Academic Commons", "contact": {}, "location": {"lat": 39.677804, "lng": -104.961883, "distance": 132, "cc": "US", "city": "Denver", "state": "CO", "country": "United States", "formattedAddress": ["Denver, CO"]}, "categories": [{"name": "College Library", "pluralName": "College Libraries", "shortName": "Library", "primary": true}], "stats": {"tipCount": 0, "usersCount": 2, "checkinsCount": 4}, "specials": {"count": 0, "items": []}, "venueChains": []}, {"name": "Aspen Apartment", "contact": {}, "location": {"address": "2280 S Vine St", "crossStreet": "s.race street", "lat": 39.67594980968333, "lng": -104.96312031489968, "distance": 128, "postalCode": "80210", "cc": "US", "city": "Denver", "state": "CO", "country": "United States", "formattedAddress": ["2280 S Vine St (s.race street)", "Denver, CO 80210"]}, "categories": [{"name": "Residential Building (Apartment / Condo)", "pluralName": "Residential Buildings (Apartments / Condos)", "shortName": "Residential", "primary": true}], "stats": {"tipCount": 0, "usersCount": 10, "checkinsCount": 201}, "specials": {"count": 0, "items": []}, "venueChains": []}, {"name": "Daniels College of Business", "contact": {"phone": "3038713411", "formattedPhone": "(303) 871-3411", "facebook": "47313827577", "facebookUsername": "danielsatdu", "facebookName": "Daniels College of Business, University of Denver"}, "location": {"address": "2101 S University Blvd", "crossStreet": "University of Denver", "lat": 39.6774809, "lng": -104.9599083, "distance": 195, "postalCode": "80210", "cc": "US", "city": "Denver", "state": "CO", "country": "United States", "formattedAddress": ["2101 S University Blvd (University of Denver)", "Denver, CO 80210"]}, "categories": [{"name": "General College & University", "pluralName": "General Colleges & Universities", "shortName": "Education", "primary": true}], "stats": {"tipCount": 8, "usersCount": 850, "checkinsCount": 10834}, "url": "https://daniels.du.edu/denver-mba/", "specials": {"count": 0, "items": []}, "venueChains": []}, {"name": "B-cycle Station", "contact": {"twitter": "denver_bcycle"}, "location": {"address": "2200 S. High St", "crossStreet": "DU Nagel Hall", "lat": 39.67767615157527, "lng": -104.96402677871124, "distance": 217, "postalCode": "80210", "cc": "US", "city": "Denver", "state": "CO", "country": "United States", "formattedAddress": ["2200 S. High St (DU Nagel Hall)", "Denver, CO 80210"]}, "categories": [{"name": "Bike Rental / Bike Share", "pluralName": "Bike Rentals / Bike Shares", "shortName": "Bike", "primary": true}], "stats": {"tipCount": 1, "usersCount": 14, "checkinsCount": 73}, "url": "http://denver.bcycle.com/", "allowMenuUrlEdit": true, "specials": {"count": 0, "items": []}, "venueChains": []}, {"name": "DCB Schneider Board Room", "contact": {}, "location": {"lat": 39.676773, "lng": -104.959884, "distance": 173, "postalCode": "80210", "cc": "US", "city": "Denver", "state": "CO", "country": "United States", "formattedAddress": ["Denver, CO 80210"]}, "categories": [{"name": "College Academic Building", "pluralName": "College Academic Buildings", "shortName": "Academic Building", "primary": true}], "stats": {"tipCount": 0, "usersCount": 7, "checkinsCount": 15}, "specials": {"count": 0, "items": []}, "venueChains": []}, {"name": "Penrose Library", "contact": {"phone": "3038712007", "formattedPhone": "(303) 871-2007"}, "location": {"address": "2150 E Evans Ave", "crossStreet": "S University Blvd", "lat": 39.67803140952055, "lng": -104.96197830459727, "distance": 157, "postalCode": "80210", "cc": "US", "city": "Denver", "state": "CO", "country": "United States", "formattedAddress": ["2150 E Evans Ave (S University Blvd)", "Denver, CO 80210"]}, "categories": [{"name": "Library", "pluralName": "Libraries", "shortName": "Library", "primary": true}], "stats": {"tipCount": 7, "usersCount": 243, "checkinsCount": 1225}, "allowMenuUrlEdit": true, "specials": {"count": 0, "items": []}, "venueChains": []}, {"name": "486C Nelson Hall University Of Denver", "contact": {}, "location": {"lat": 39.6766112711194, "lng": -104.96423785224562, "distance": 200, "postalCode": "80210", "cc": "US", "city": "Denver", "state": "CO", "country": "United States", "formattedAddress": ["Denver, CO 80210"]}, "categories": [{"name": "College Residence Hall", "pluralName": "College Residence Halls", "shortName": "Residence Hall", "primary": true}], "stats": {"tipCount": 0, "usersCount": 2, "checkinsCount": 4}, "specials": {"count": 0, "items": []}, "venueChains": []}, {"name": "University of Denver Hotel Restaurant & Tourism Management Building", "contact": {}, "location": {"lat": 39.67744, "lng": -104.96298, "distance": 130, "postalCode": "80210", "cc": "US", "city": "Denver", "state": "CO", "country": "United States", "formattedAddress": ["Denver, CO 80210"]}, "categories": [{"name": "College Academic Building", "pluralName": "College Academic Buildings", "shortName": "Academic Building", "primary": true}], "stats": {"tipCount": 0, "usersCount": 5, "checkinsCount": 8}, "specials": {"count": 0, "items": []}, "venueChains": []}, {"name": "Nelson Hall", "contact": {}, "location": {"address": "2222 S High St", "lat": 39.6763494688729, "lng": -104.96478749099022, "distance": 249, "postalCode": "80210", "cc": "US", "city": "Denver", "state": "CO", "country": "United States", "formattedAddress": ["2222 S High St", "Denver, CO 80210"]}, "categories": [{"name": "College Residence Hall", "pluralName": "College Residence Halls", "shortName": "Residence Hall", "primary": true}], "stats": {"tipCount": 0, "usersCount": 31, "checkinsCount": 161}, "specials": {"count": 0, "items": []}, "venueChains": []}, {"name": "Reiman Theater", "contact": {}, "location": {"address": "2101 S University Blvd", "crossStreet": "Evans Avenue", "lat": 39.678329, "lng": -104.960571, "distance": 221, "postalCode": "80210", "cc": "US", "city": "Denver", "state": "CO", "country": "United States", "formattedAddress": ["2101 S University Blvd (Evans Avenue)", "Denver, CO 80210"]}, "categories": [{"name": "College Arts Building", "pluralName": "College Arts Buildings", "shortName": "Arts", "primary": true}], "stats": {"tipCount": 0, "usersCount": 5, "checkinsCount": 8}, "specials": {"count": 0, "items": []}, "venueChains": []}, {"name": "rtd Bus 21", "contact": {}, "location": {"lat": 39.678345908833755, "lng": -104.96307409891956, "distance": 217, "postalCode": "80210", "cc": "US", "city": "Denver", "state": "CO", "country": "United States", "formattedAddress": ["Denver, CO 80210"]}, "categories": [{"name": "Bus Line", "pluralName": "Bus Lines", "shortName": "Bus", "primary": true}], "stats": {"tipCount": 0, "usersCount": 2, "checkinsCount": 2}, "specials": {"count": 0, "items": []}, "venueChains": []}, {"name": "University Of Denver -HRTM", "contact": {}, "location": {"lat": 39.678267203652716, "lng": -104.96311973614573, "distance": 211, "cc": "US", "state": "Colorado", "country": "United States", "formattedAddress": ["Colorado"]}, "categories": [{"name": "College Arts Building", "pluralName": "College Arts Buildings", "shortName": "Arts", "primary": true}], "stats": {"tipCount": 1, "usersCount": 52, "checkinsCount": 111}, "specials": {"count": 0, "items": []}, "venueChains": []}, {"name": "Nelson Hall Dining", "contact": {}, "location": {"address": "2222 S High St", "lat": 39.67615513701005, "lng": -104.96457281378, "distance": 235, "postalCode": "80210", "cc": "US", "city": "Denver", "state": "CO", "country": "United States", "formattedAddress": ["2222 S High St", "Denver, CO 80210"]}, "categories": [{"name": "College Cafeteria", "pluralName": "College Cafeterias", "shortName": "Cafeteria", "primary": true}], "stats": {"tipCount": 9, "usersCount": 223, "checkinsCount": 1928}, "specials": {"count": 0, "items": []}, "venueChains": []}, {"name": "Einstein Bros. Bagels", "contact": {"phone": "3038717680", "formattedPhone": "(303) 871-7680", "twitter": "einsteinbros", "facebook": "211063022416", "facebookUsername": "einsteinbros", "facebookName": "Einstein Bros. Bagels"}, "location": {"address": "1745 S High St Rm 117", "lat": 39.68455280987089, "lng": -104.9658277630806, "distance": 945, "postalCode": "80210", "cc": "US", "city": "Denver", "state": "CO", "country": "United States", "formattedAddress": ["1745 S High St Rm 117", "Denver, CO 80210"]}, "categories": [{"name": "Bagel Shop", "pluralName": "Bagel Shops", "shortName": "Bagels", "primary": true}], "stats": {"tipCount": 0, "usersCount": 1, "checkinsCount": 3}, "url": "http://www.einsteinbros.com", "allowMenuUrlEdit": true, "specials": {"count": 0, "items": []}, "storeId": "6124", "venueChains": [{"id": "556ce8d9aceaff43eb0588d6"}]}, {"name": "University College at DU", "contact": {}, "location": {"address": "2213 S Josephine st", "lat": 39.67657330617429, "lng": -104.95939464032405, "distance": 214, "cc": "US", "city": "Denver", "state": "CO", "country": "United States", "formattedAddress": ["2213 S Josephine st", "Denver, CO"]}, "categories": [{"name": "University", "pluralName": "Universities", "shortName": "University", "primary": true}], "stats": {"tipCount": 0, "usersCount": 40, "checkinsCount": 75}, "specials": {"count": 0, "items": []}, "venueChains": []}, {"name": "Pioneer Card Office", "contact": {}, "location": {"lat": 39.678099, "lng": -104.962852, "distance": 184, "cc": "US", "city": "Denver", "state": "CO", "country": "United States", "formattedAddress": ["Denver, CO"]}, "categories": [{"name": "College Administrative Building", "pluralName": "College Administrative Buildings", "shortName": "Administrative Building", "primary": true}], "stats": {"tipCount": 0, "usersCount": 4, "checkinsCount": 4}, "specials": {"count": 0, "items": []}, "venueChains": []}, {"name": "Lambda Chi Alpha DU Alpha Pi Zeta Chapter", "contact": {}, "location": {"address": "2217 E Evans Ave", "crossStreet": "Gaylord", "lat": 39.678794114750275, "lng": -104.96147128364254, "distance": 245, "postalCode": "80210", "cc": "US", "city": "Denver", "state": "CO", "country": "United States", "formattedAddress": ["2217 E Evans Ave (Gaylord)", "Denver, CO 80210"]}, "categories": [{"name": "Fraternity House", "pluralName": "Fraternity Houses", "shortName": "Frat House", "primary": true}], "stats": {"tipCount": 1, "usersCount": 38, "checkinsCount": 444}, "specials": {"count": 0, "items": []}, "venueChains": []}]